[
    {
        "name": "横滨港",
        "code": "JPYOK",
        "lat": 35.4518,
        "lng": 139.6857,
        "region": "関東"
    },
    {
        "name": "東京港",
        "code": "JPTYO",
        "lat": 35.6083,
        "lng": 139.7833,
        "region": "関東"
    },
    {
        "name": "大阪港",
        "code": "JPOSA",
        "lat": 34.6333,
        "lng": 135.4167,
        "region": "関西"
    },
    {
        "name": "神戸港",
        "code": "JPUKB",
        "lat": 34.6833,
        "lng": 135.2167,
        "region": "関西"
    },
    {
        "name": "名古屋港",
        "code": "JPNGO",
        "lat": 35.0833,
        "lng": 136.8833,
        "region": "中部"
    }
]